{
  "version": "0.1",
  "description": "基础一带一路国家配置模板。后续阶段可扩展到完整沿线国家清单。",
  "regions": [
    {
      "code": "EAST_ASIA",
      "nameCn": "东亚",
      "countries": [
        { "cameoCode": "CHN", "isoCode": "CN", "nameCn": "中国", "nameEn": "China", "latitude": 35.8617, "longitude": 104.1954 },
        { "cameoCode": "MNG", "isoCode": "MN", "nameCn": "蒙古", "nameEn": "Mongolia", "latitude": 46.8625, "longitude": 103.8467 }
      ]
    },
    {
      "code": "SOUTHEAST_ASIA",
      "nameCn": "东南亚",
      "countries": [
        { "cameoCode": "IDN", "isoCode": "ID", "nameCn": "印度尼西亚", "nameEn": "Indonesia", "latitude": -0.7893, "longitude": 113.9213 },
        { "cameoCode": "MYS", "isoCode": "MY", "nameCn": "马来西亚", "nameEn": "Malaysia", "latitude": 4.2105, "longitude": 101.9758 },
        { "cameoCode": "THA", "isoCode": "TH", "nameCn": "泰国", "nameEn": "Thailand", "latitude": 15.8700, "longitude": 100.9925 },
        { "cameoCode": "VNM", "isoCode": "VN", "nameCn": "越南", "nameEn": "Vietnam", "latitude": 14.0583, "longitude": 108.2772 }
      ]
    },
    {
      "code": "CENTRAL_ASIA",
      "nameCn": "中亚",
      "countries": [
        { "cameoCode": "KAZ", "isoCode": "KZ", "nameCn": "哈萨克斯坦", "nameEn": "Kazakhstan", "latitude": 48.0196, "longitude": 66.9237 },
        { "cameoCode": "UZB", "isoCode": "UZ", "nameCn": "乌兹别克斯坦", "nameEn": "Uzbekistan", "latitude": 41.3775, "longitude": 64.5853 },
        { "cameoCode": "KGZ", "isoCode": "KG", "nameCn": "吉尔吉斯斯坦", "nameEn": "Kyrgyzstan", "latitude": 41.2044, "longitude": 74.7661 }
      ]
    },
    {
      "code": "MIDDLE_EAST",
      "nameCn": "中东",
      "countries": [
        { "cameoCode": "IRN", "isoCode": "IR", "nameCn": "伊朗", "nameEn": "Iran", "latitude": 32.4279, "longitude": 53.6880 },
        { "cameoCode": "SAU", "isoCode": "SA", "nameCn": "沙特阿拉伯", "nameEn": "Saudi Arabia", "latitude": 23.8859, "longitude": 45.0792 },
        { "cameoCode": "TUR", "isoCode": "TR", "nameCn": "土耳其", "nameEn": "Turkey", "latitude": 38.9637, "longitude": 35.2433 }
      ]
    },
    {
      "code": "EASTERN_EUROPE",
      "nameCn": "东欧",
      "countries": [
        { "cameoCode": "RUS", "isoCode": "RU", "nameCn": "俄罗斯", "nameEn": "Russia", "latitude": 61.5240, "longitude": 105.3188 },
        { "cameoCode": "POL", "isoCode": "PL", "nameCn": "波兰", "nameEn": "Poland", "latitude": 51.9194, "longitude": 19.1451 },
        { "cameoCode": "HUN", "isoCode": "HU", "nameCn": "匈牙利", "nameEn": "Hungary", "latitude": 47.1625, "longitude": 19.5033 }
      ]
    },
    {
      "code": "AFRICA",
      "nameCn": "非洲",
      "countries": [
        { "cameoCode": "EGY", "isoCode": "EG", "nameCn": "埃及", "nameEn": "Egypt", "latitude": 26.8206, "longitude": 30.8025 },
        { "cameoCode": "KEN", "isoCode": "KE", "nameCn": "肯尼亚", "nameEn": "Kenya", "latitude": -0.0236, "longitude": 37.9062 },
        { "cameoCode": "ETH", "isoCode": "ET", "nameCn": "埃塞俄比亚", "nameEn": "Ethiopia", "latitude": 9.1450, "longitude": 40.4897 }
      ]
    }
  ]
}
